[
    {
        "model": "portal.location",
        "pk": 1,
        "fields": {
            "name": "Quezon City",
            "longitude": "121.05090000",
            "latitude": "14.64880000",
            "tier": 1
        }
    },
    {
        "model": "portal.location",
        "pk": 2,
        "fields": {
            "name": "Cebu City",
            "longitude": "123.89166700",
            "latitude": "10.31111100",
            "tier": 2
        }
    },
    {
        "model": "portal.location",
        "pk": 3,
        "fields": {
            "name": "Baguio City",
            "longitude": "120.59099800",
            "latitude": "16.41715500",
            "tier": 1
        }
    },
    {
        "model": "portal.location",
        "pk": 4,
        "fields": {
            "name": "Pasay City",
            "longitude": "120.99581800",
            "latitude": "14.54559000",
            "tier": 1
        }
    },
    {
        "model": "portal.location",
        "pk": 5,
        "fields": {
            "name": "Olongapo",
            "longitude": "120.28511800",
            "latitude": "14.83890800",
            "tier": 1
        }
    },
    {
        "model": "portal.location",
        "pk": 6,
        "fields": {
            "name": "Tarlac City",
            "longitude": "120.59794000",
            "latitude": "15.48016900",
            "tier": 1
        }
    },
    {
        "model": "portal.location",
        "pk": 7,
        "fields": {
            "name": "Marikina City",
            "longitude": "121.11179600",
            "latitude": "14.64138000",
            "tier": 1
        }
    },
    {
        "model": "portal.location",
        "pk": 8,
        "fields": {
            "name": "Antipolo",
            "longitude": "121.17570000",
            "latitude": "14.58860000",
            "tier": 1
        }
    },
    {
        "model": "portal.location",
        "pk": 9,
        "fields": {
            "name": "City of Para\u00f1aque",
            "longitude": "120.99073700",
            "latitude": "14.49775200",
            "tier": 1
        }
    }
]
